name,state,address,phone,lat,lon,photo,opening_event
Fairbanks,AK,"542 4th Ave., Fairbanks, AK 99701 (Suite B101)",-,64.842485,-147.719475,http://i.imgur.com/gzp8dyY.png,
Anchorage,AK,"3101 Penland Pkwy., Anchorage, AK 99508 (Suite E10)",-,61.216992,-149.820258,http://i.imgur.com/r9Xy87Y.png,
Phoenix,AZ,"1301 E. Washington St., Phoenix, AZ 85034",(602) 354-5179,33.447948,-112.053936,http://i.imgur.com/qdEZ7Pl.png,
Tucson,AZ,"1832 East 6th St., Tucson, AZ 85719",(520) 268-4282,32.22758,-110.944296,http://i.imgur.com/x3mk6mF.png,
"Washington, D.C.",DC,"312 Massachusetts Ave. NE, Washington, DC 20002",(202) 506-5831,38.8943255,-77.0013426,http://imgur.com/zJuvxXJ.png,
Jacksonville,FL,"1710 Main St. N, Jacksonville, FL 32206",(904) 805-2180,30.344662,-81.654256,http://i.imgur.com/vuqXq5C.png,
Miami,FL,"48 NW 25th St., Miami, FL 33127",(786) 600-3734,25.800521,-80.195925,http://i.imgur.com/W3vsscN.png,
Orlando,FL,"1200 E. Hillcrest St., Orlando, FL 32803",(954) 895-1622,28.552045,-81.364015,http://i.imgur.com/WXsZZhf.png,
Honolulu (Suite 2500),HI,"1050 Ala Moana Blvd., Honolulu, HI 96814",(630) 200-5611,21.2951,-157.857177,http://i.imgur.com/KtBu1JE.png,
Council Bluffs,IA,"500 West Broadway, Council Bluffs, IA 51503",(712) 323-7232,41.2612218,-95.8499378,http://i.imgur.com/F9AExrf.png,
Davenport,IA,"736 Federal St., Davenport, IA 52801",(563) 323-0559,41.5247596,-90.5633143,http://i.imgur.com/zAxjGHT.png,
Des Moines,IA,"3839 Merle Hay, Des Moines, IA 50310",(515) 251-6335,41.6308099,-93.697183,http://i.imgur.com/BVPuA37.png,
Boise,ID,"280 N. 8th St., Boise, ID 83702 (Suite 118)",(843) 250-9021,43.616914,-116.201815,http://i.imgur.com/yAckA0H.png,
Batavia,IL,"144 W. Wilson St., Batavia, IL 60510",(630) 406-5035 ,41.849871,-88.309993,http://i.imgur.com/PQj0oRO.png,
Berwyn,IL,"6902 Cermak Rd., Berwyn, IL 60402",(708) 317-4550,41.850704,-87.796034,http://i.imgur.com/OjujDdA.png,
Bloomington-Normal,IL,"510 E Washington St., Bloomington, IL 61701 (Suites 101 & 103) ",-,40.480167,-88.987804,http://i.imgur.com/whFK7zD.png,
Carbondale,IL,"715 S University Ave., Carbondale, IL 62901",(603) 851-6003,37.720141,-89.217459,http://i.imgur.com/rdvwDp1.png,
Champaign-Urbana,IL,"1717 Philo Rd., Urbana, IL 61802 (Suite 12)",(217) 693-7068,40.097017,-88.192353,http://i.imgur.com/XPljMT8.png,
Chicago,IL,"600 W Roosevelt Rd., Chicago, IL 60607",(312) 877-5318,41.867602,-87.642415,http://i.imgur.com/toHoTM6.png,
Chicago - South Side,IL,"705 E. 75th St., Chicago, IL 60619",(773) 962-2298,41.758309,-87.607474,http://i.imgur.com/zAjm1Ed.png,
Collinsville,IL,"114 W Main St., Collinsville, IL 62234",(618) 855-8757,38.6697,-89.986851,http://i.imgur.com/JgQbDLN.png,
DeKalb,IL,"217 Franklin St., DeKalb, IL 60115",(815) 754-0704,41.928334,-88.752934,http://i.imgur.com/c0BvrV3.png,
Evanston,IL,"516 Dempster Ave., Evanston, IL 60202",(847) 859-6812,42.041015,-87.679873,http://i.imgur.com/uiqPeMM.png,
Joliet,IL,"58 N Chicago St., Joliet, IL 60432",(779) 379-5775,41.525252,-88.081342,http://i.imgur.com/h55kG2E.png,
Lombard,IL,"112 S. Main St., Lombard, IL 60148",(630) 709-5754,41.885883,-88.018536,http://i.imgur.com/C2FGyYJ.png,
Rockford,IL,"309 Mulberry St., Rockford, IL",(779) 210-7434,42.272395,-89.094244,http://i.imgur.com/MUTSWMG.png,
Springfield,IL,"1535 W Wabash Ave., Springfield, IL 62704",(773) 962-2298,39.76456,-89.67928,http://i.imgur.com/0q2DL7K.png,
Waukegan,IL,"1534 Washington St., Waukegan, IL 60085",(224) 637-8590,42.359692,-87.851007,http://i.imgur.com/Ipsa8pq.png,
Quad Cities,IL,"918 15th Ave., East Moline, IL 61244",(309) 755-2628,41.515828,-90.440135,http://i.imgur.com/LSJxRkX.png,
Ann Arbor / Ypsi - THANK YOU MICHIGAN!,MI,"4072 Packard Rd., Ann Arbor, MI 48108",(734) 548-7864,42.24546,-83.679144,http://i.imgur.com/fkFMlYh.png,https://goo.gl/12fp3J
Dearborn - THANK YOU MICHIGAN!,MI,"4907 Schaefer Rd., Dearborn, MI 48126",(603) 493-7715,42.322913,-83.176284,http://i.imgur.com/AyosNUz.png,https://goo.gl/12fp3J
Detroit - THANK YOU MICHIGAN!,MI,"7500 Oakland St., Detroit MI 48211",(313) 826-2434,42.375522,-83.065255,http://i.imgur.com/JsXJSjX.png,https://goo.gl/12fp3J
Flint - THANK YOU MICHIGAN!,MI,"600 Harrison St., Flint, MI 48502",(989) 859-6649,43.015388,-83.688789,http://i.imgur.com/7uYEPPX.png,https://goo.gl/12fp3J
Grand Rapids - THANK YOU MICHIGAN!,MI,"3446 Plainfield Ave. NE, Grand Rapids, MI 49525",(603) 493-7659,43.026333,-85.632427,http://i.imgur.com/R5vuVYW.png,https://goo.gl/12fp3J
Kalamazoo - THANK YOU MICHIGAN!,MI,"4038 N Westnedge Ave., Kalamazoo, MI 49094",(603) 998-4415,42.331313,-85.588239,http://i.imgur.com/iNNRnAE.png,https://goo.gl/12fp3J
Lansing - THANK YOU MICHIGAN!,MI,"2722 E Michigan Ave., Lansing, MI 48912 (Suite 101)",(517) 367-0805,42.733068,-84.512831,http://i.imgur.com/Qwd4VuQ.png,https://goo.gl/12fp3J
Pontiac - THANK YOU MICHIGAN!,MI,"4 North Saginaw St., Pontiac, MI 48342",(603) 851-5420,42.636867,-83.2915,http://i.imgur.com/SfODkNx.png,https://goo.gl/12fp3J
Saginaw - THANK YOU MICHIGAN!,MI,"1614 Mershon St., Saginaw, MI 48602",(248) 210-0455,43.430944,-83.963733,http://i.imgur.com/2Mp4ut9.png,https://goo.gl/12fp3J
Traverse City - THANK YOU MICHIGAN!,MI,"1000 Milliken Dr.,Traverse City, MI 49686",(603) 851-5993,44.767101,-85.590009,http://i.imgur.com/hWkN1vt.png,https://goo.gl/12fp3J
Westland - THANK YOU MICHIGAN!,MI,"5818 N Wayne Rd., Westland, MI 48145",(845) 901-5659,42.326473,-83.388647,http://i.imgur.com/9lKVyrV.png,https://goo.gl/12fp3J
Cape Girardeau,MO,"823 Broadway St., Cape Girardeau, MO 63701",-,37.306729,-89.529209,http://i.imgur.com/swkLZDN.png,
Columbia,MO,"15 S 10th St., Columbia, MO 65201",(603) 851-5912,38.950906,-92.326806,http://i.imgur.com/sRLXGg7.png,
Ferguson,MO,"14 Church St., Ferguson, MO 63135",-,38.744931,-90.304639,http://i.imgur.com/kLBHtjo.png,
Kansas City,MO,"3600 Broadway, Kansas City, MO 64111",(573) 489-5233,39.062155,-94.59048,http://i.imgur.com/QzDXOTb.png,
Springfield,MO,"431 S Jefferson Ave., Springfield, MO 65806",-,37.206032,-93.290647,http://i.imgur.com/yGwcTP7.png,
St. Louis - Cherokee St.,MO,"2626 Cherokee St., St. Louis, MO 63118",-,38.593204,-90.226917,http://i.imgur.com/tQYY9Cv.png,
St. Louis - Garrison Ave.,MO,"509 N Garrison Ave., St Louis, MO 63103",-,38.636165,-90.22172,http://i.imgur.com/QM4yXn4.png,
St. Louis - Greer Ave.,MO,"3911 Greer Ave., St. Louis, MO 63107",-,38.660387,-90.225627,http://i.imgur.com/CeraJ4O.png,
Asheville,NC,"2296 US 70 Hwy., Swannanoa, NC 28778",(828) 581-4311,35.599755,-82.407745,http://i.imgur.com/QfTtzcg.png,
Charlotte,NC,"2424 N. Davidson St., Charlotte, NC 28205",(980) 272-1417,35.239994,-80.811127,http://i.imgur.com/0x1vWVg.png,
Durham,NC,"207 N. Church St., Durham, NC 27701",(919) 972-8407,35.995271,-78.899002,http://i.imgur.com/XVehuEY.png,
Greenville,NC,"111 East 3rd St., Greenville, NC 27858",-,35.613309,-77.371868,http://i.imgur.com/GsxWRop.png,
Wilmington,NC," 2106 Rhodes Ave., Wilmington, NC 28405",(910) 742-0946,34.241721,-77.922424,http://i.imgur.com/54xyiR8.png,
Winston-Salem,NC,"95 Waughtown St., Winston-Salem, NC 27127",(336) 283-6098,36.079276,-80.237869,http://i.imgur.com/OIRAiR8.png,
Manchester,NH,"835 Hanover St., Manchester, NH 03104",(603) 935-9084 ,42.9873012,-71.4294765,http://i.imgur.com/t8aTBLA.png,
Reno,NV,"1155 West 4th St., Reno, NV 89503",(775) 857-7104,39.526454,-119.828996,http://i.imgur.com/EpaCQYi.png,
Las Vegas,NV,"4440 S. Maryland Parkway, Las Vegas, NV 89119",-,36.10884,-115.137068,http://i.imgur.com/2sEjkZ4.png,
Canton,OH,"131 Cleveland Ave. S.W., Canton, OH 44702",-,40.798393,-81.376869,http://i.imgur.com/6iEQmQX.png,
Cincinnati,OH,"1385 Tennessee Ave., Cincinnati, OH 45229",-,39.168024,-84.470832,http://i.imgur.com/TypVz5Y.png,https://goo.gl/46oG2J
Cleveland,OH,"2020 Euclid Ave., Cleveland, OH 44115",(440) 315-2852,41.501464,-81.67617,http://i.imgur.com/TrU8HCg.png,
Columbus,OH,"1181 E. Main St., Columbus, OH 43205",(540) 998-9425,39.957172,-82.967561,http://imgur.com/CcyKVUR.png,
Dayton,OH,"111 West First St., Dayton, OH 45402",(571) 606-3434,39.762254,-84.19488,http://i.imgur.com/RfK5yjl.png,
Toledo,OH,"807 Lime City Rd., Rossford, OH 43460 ",(567) 202-7340,41.590027,-83.566635,http://i.imgur.com/adlY3Yj.png,
Youngstown / Niles,OH,"950 Youngstown Warren Rd., Niles, OH 44446",(951) 852-1455,41.199041,-80.732408,http://i.imgur.com/aEwJcNa.png,
Salt Lake City,UT,"17 400 S, Salt Lake City, UT 84111",(385) 223-6954,40.760939,-111.890384,http://i.imgur.com/FvoyGBM.png,
Burlington,VT,"131 Church St., Burlington, VT 05401",(855) 423-7643,44.476761,-73.212811,http://i.imgur.com/ZdZHJ6C.png,
Bellingham,WA,"105 E Holly St., Bellingham, WA 98229",(801) 663-3051,48.749554,-122.478786,http://i.imgur.com/xxz9584.png,
Seattle - Downtown,WA,"617 E Pike St., Seattle, WA 98122",(559) 579-2734,47.613935,-122.323587,http://i.imgur.com/ygJMUfs.png,
Seattle - North,WA,"11742 15th Ave. NE, Seattle, WA 98125",(304) 541-7428,47.714786,-122.31251,http://i.imgur.com/CuTX1Tq.png,
Spokane,WA,"2209 N Monroe St., Spokane, WA 99205",(630) 621-5398,47.677977,-117.426839,http://i.imgur.com/cy83hrV.png,
Tacoma,WA,"5631 Tacoma Mall Blvd., Tacoma, WA",(217) 799-2459,47.205366,-122.463473,http://i.imgur.com/M7aWaDL.png,
Vancouver,WA,"400 E Evergreen Blvd., Vancouver, WA 98660",(303) 881-8429,45.62937,-122.66794,http://i.imgur.com/DRsLVrO.png,
Yakima,WA,"116 Pendleton Way, Yakima, WA 98901",(323) 485-4017,46.603539,-120.50646,http://imgur.com/KYTpIE4.png,
Laramie,WY,"111 Grand Ave., Laramie, WY 82072",-,41.311307,-105.595745,http://i.imgur.com/zDCBSHk.png,