zip,primary_city,state,lat,lon
Canada,,,61.2472132,-98.3366862
Australia,,,-24.7947697,137.338519
Belgium,,,50.8500,4.3500
Austria,,,48.2000,16.3500
Chile,,,-35.0703703,-65.416462
Costa Rica,,,9.6825325,-83.9419599
Czech Republic,,,49.7821135,16.1433594
Denmark,,,56.1351841,10.025129
Dominican Republic,,,18.7084656,-70.3660717